{
  "Mumbai": {
    "cityName": "Mumbai",
    "countryCode": "IN",
    "temperature": 31.2,
    "feelsLike": 34.5,
    "humidity": 75,
    "windSpeed": 4.5,
    "windDirection": 270,
    "weatherCondition": "Clouds",
    "weatherDescription": "scattered clouds",
    "weatherIcon": "03d",
    "pressure": 1008,
    "visibility": 6000,
    "timestamp": 1679493600,
    "lat": 19.076,
    "lon": 72.8777
  },
  "Delhi": {
    "cityName": "Delhi",
    "countryCode": "IN",
    "temperature": 36.5,
    "feelsLike": 38.2,
    "humidity": 25,
    "windSpeed": 3.1,
    "windDirection": 110,
    "weatherCondition": "Clear",
    "weatherDescription": "clear sky",
    "weatherIcon": "01d",
    "pressure": 1010,
    "visibility": 10000,
    "timestamp": 1679493600,
    "lat": 28.7041,
    "lon": 77.1025
  },
  "Bangalore": {
    "cityName": "Bangalore",
    "countryCode": "IN",
    "temperature": 27.8,
    "feelsLike": 28.9,
    "humidity": 62,
    "windSpeed": 2.6,
    "windDirection": 160,
    "weatherCondition": "Rain",
    "weatherDescription": "light rain",
    "weatherIcon": "10d",
    "pressure": 1012,
    "visibility": 8000,
    "timestamp": 1679493600,
    "lat": 12.9716,
    "lon": 77.5946
  },
  "Hyderabad": {
    "cityName": "Hyderabad",
    "countryCode": "IN",
    "temperature": 33.4,
    "feelsLike": 35.1,
    "humidity": 45,
    "windSpeed": 3.7,
    "windDirection": 210,
    "weatherCondition": "Clouds",
    "weatherDescription": "broken clouds",
    "weatherIcon": "04d",
    "pressure": 1009,
    "visibility": 7000,
    "timestamp": 1679493600,
    "lat": 17.385,
    "lon": 78.4867
  },
  "Chennai": {
    "cityName": "Chennai",
    "countryCode": "IN",
    "temperature": 32.6,
    "feelsLike": 36.8,
    "humidity": 80,
    "windSpeed": 4.1,
    "windDirection": 180,
    "weatherCondition": "Thunderstorm",
    "weatherDescription": "thunderstorm with rain",
    "weatherIcon": "11d",
    "pressure": 1006,
    "visibility": 5000,
    "timestamp": 1679493600,
    "lat": 13.0827,
    "lon": 80.2707
  },
  "Kolkata": {
    "cityName": "Kolkata",
    "countryCode": "IN",
    "temperature": 34.2,
    "feelsLike": 37.5,
    "humidity": 70,
    "windSpeed": 3.4,
    "windDirection": 135,
    "weatherCondition": "Haze",
    "weatherDescription": "haze",
    "weatherIcon": "50d",
    "pressure": 1007,
    "visibility": 4000,
    "timestamp": 1679493600,
    "lat": 22.5726,
    "lon": 88.3639
  },
  "Jaipur": {
    "cityName": "Jaipur",
    "countryCode": "IN",
    "temperature": 35.8,
    "feelsLike": 36.3,
    "humidity": 20,
    "windSpeed": 5.2,
    "windDirection": 290,
    "weatherCondition": "Clear",
    "weatherDescription": "clear sky",
    "weatherIcon": "01d",
    "pressure": 1011,
    "visibility": 10000,
    "timestamp": 1679493600,
    "lat": 26.9124,
    "lon": 75.7873
  }
}
